{
  "city": "gadchiroli",
  "source": "District Social & Economic Review 2023 — 17 Police Stations, 31 Outposts, 884 Personnel",
  "policeStations": [
    {
      "id": "gadchiroli-sp",
      "name": "Superintendent of Police Office, Gadchiroli",
      "lat": 20.1900,
      "lng": 80.0100,
      "address": "SP Office Road, Gadchiroli Town",
      "phone": "07132-222215",
      "type": "headquarters"
    },
    {
      "id": "gadchiroli-town-ps",
      "name": "Gadchiroli Town Police Station",
      "lat": 20.1830,
      "lng": 80.0050,
      "address": "Main Road, Gadchiroli",
      "phone": "07132-222218",
      "type": "town"
    },
    {
      "id": "desaiganj-ps",
      "name": "Desaiganj (Wadsa) Police Station",
      "lat": 20.5250,
      "lng": 79.9800,
      "address": "Desaiganj Town, Wadsa",
      "phone": "07138-272218",
      "type": "town"
    },
    {
      "id": "armori-ps",
      "name": "Armori Police Station",
      "lat": 20.4760,
      "lng": 80.0300,
      "address": "Armori Town, Gadchiroli District",
      "phone": "07138-252218",
      "type": "town"
    },
    {
      "id": "chamorshi-ps",
      "name": "Chamorshi Police Station",
      "lat": 19.9800,
      "lng": 79.8200,
      "address": "Chamorshi, Gadchiroli",
      "phone": "07132-285218",
      "type": "rural"
    },
    {
      "id": "aheri-ps",
      "name": "Aheri Police Station",
      "lat": 19.8100,
      "lng": 79.9000,
      "address": "Aheri Town, Gadchiroli",
      "phone": "07133-242218",
      "type": "rural"
    },
    {
      "id": "etapalli-ps",
      "name": "Etapalli Police Station",
      "lat": 19.5200,
      "lng": 80.0800,
      "address": "Etapalli, Gadchiroli",
      "phone": "07133-275218",
      "type": "sensitive"
    },
    {
      "id": "bhamragad-ps",
      "name": "Bhamragad Police Station",
      "lat": 19.5050,
      "lng": 80.3500,
      "address": "Bhamragad, Gadchiroli",
      "phone": "07133-288218",
      "type": "sensitive"
    },
    {
      "id": "sironcha-ps",
      "name": "Sironcha Police Station",
      "lat": 18.8500,
      "lng": 79.9800,
      "address": "Sironcha, Gadchiroli",
      "phone": "07133-265218",
      "type": "sensitive"
    },
    {
      "id": "korchi-ps",
      "name": "Korchi Police Station",
      "lat": 19.9800,
      "lng": 79.5500,
      "address": "Korchi, Gadchiroli",
      "phone": "07132-278218",
      "type": "rural"
    },
    {
      "id": "kurkheda-ps",
      "name": "Kurkheda Police Station",
      "lat": 20.2000,
      "lng": 79.7000,
      "address": "Kurkheda, Gadchiroli",
      "phone": "07132-268218",
      "type": "rural"
    },
    {
      "id": "mulchera-ps",
      "name": "Mulchera Police Station",
      "lat": 20.3500,
      "lng": 80.2000,
      "address": "Mulchera, Gadchiroli",
      "phone": "07132-295218",
      "type": "rural"
    },
    {
      "id": "dhanora-ps",
      "name": "Dhanora Police Station",
      "lat": 20.3200,
      "lng": 80.1200,
      "address": "Dhanora, Gadchiroli",
      "phone": "07132-292218",
      "type": "rural"
    }
  ],
  "hospitals": [
    {
      "id": "district-hospital",
      "name": "District General Hospital, Gadchiroli",
      "lat": 20.1800,
      "lng": 80.0000,
      "address": "Civil Lines, Gadchiroli",
      "phone": "07132-222501",
      "beds": 200,
      "emergency": true,
      "type": "district"
    },
    {
      "id": "hemalkasa-hospital",
      "name": "Lok Biradari Hospital, Hemalkasa",
      "lat": 19.4800,
      "lng": 80.1600,
      "address": "Hemalkasa, Bhamragad Taluka",
      "phone": "07138-284222",
      "beds": 80,
      "emergency": true,
      "type": "tribal"
    },
    {
      "id": "aheri-rural",
      "name": "Rural Hospital, Aheri",
      "lat": 19.8000,
      "lng": 79.8900,
      "address": "Aheri Town, Gadchiroli",
      "phone": "07133-242501",
      "beds": 30,
      "emergency": true,
      "type": "rural"
    },
    {
      "id": "desaiganj-hospital",
      "name": "Sub-District Hospital, Desaiganj",
      "lat": 20.5200,
      "lng": 79.9750,
      "address": "Wadsa, Desaiganj",
      "phone": "07138-272501",
      "beds": 50,
      "emergency": true,
      "type": "sub-district"
    },
    {
      "id": "armori-hospital",
      "name": "Rural Hospital, Armori",
      "lat": 20.4700,
      "lng": 80.0250,
      "address": "Armori, Gadchiroli",
      "phone": "07138-252501",
      "beds": 30,
      "emergency": false,
      "type": "rural"
    },
    {
      "id": "chamorshi-hospital",
      "name": "Primary Health Centre, Chamorshi",
      "lat": 19.9750,
      "lng": 79.8150,
      "address": "Chamorshi, Gadchiroli",
      "phone": "07132-285501",
      "beds": 20,
      "emergency": false,
      "type": "phc"
    },
    {
      "id": "sironcha-phc",
      "name": "Primary Health Centre, Sironcha",
      "lat": 18.8450,
      "lng": 79.9750,
      "address": "Sironcha, Gadchiroli",
      "phone": "07133-265501",
      "beds": 20,
      "emergency": false,
      "type": "phc"
    }
  ]
}
